Policy_Number,Account,Address_1,Address_2,Region,Postcode_ZIP,Country,Latitude,Longitude
100001,McCauley Glass & furniture,Cat and Fiddle Lane,West Hallam,Derbyshire,DE7 6HE,GB,52.959512,-1.361333
100002,McRandle Enterprises,Warehouse Beeston Site,Thane Road,Beeston,NG2 3AA,GB,52.926655,-1.176569
100003,Farrell Window Supplies,"Kingsway, Swansea Ind. Est., Swansea, W. Glamorgan",Swansea,West Glamorgan,SA5 4HA,GB,51.645713,-3.990298
100004,Jimenez Car Sales,"Millshaw Park Ave., Millshaw Trading Est., Leeds, W. Yorkshire",Leeds,Yorkshire,LS11 0LR,GB,53.763569,-1.578982
100005,Calvo Corp,"Hinckley Bus. Park, Dodwells Rd, Hinckley, Leicestershire",Hinkley,Leicester,LE10 3BZ,GB,52.539406,-1.404062
100006,Padula Bakeries,"UDG Ltd, Amber Pk, Berristow Lane",South Normanton,Derbyshire  UK,DE55 2FH,GB,53.113127,-1.325587
100007,Fletcher Holdings,"4 Pooley Close, Westerhope, Newcastle Upon Tyne",Newcastle,Newcastle,NE5 2TF,GB,54.990823,-1.676878
100008,Ricupero Pasta Co.,"Cox Lane, Chessington, Surrey (H/O)",Chessington,Surrey,KT9 1SN,GB,51.369084,-0.29241
